[
  {
    "address": "Paris",
    "latitude": 48.859,
    "longitude": 2.347,
    "score": 0.9702972727272726,
    "city": "Paris",
    "postcode": "75001",
    "citycode": "75056",
    "commune": "Paris",
    "population": 2113705,
    "fetched_at": "2025-12-17 13:59:48.219553"
  },
  {
    "address": "Lyon",
    "latitude": 45.758,
    "longitude": 4.835,
    "score": 0.9639290909090908,
    "city": "Lyon",
    "postcode": "69001",
    "citycode": "69123",
    "commune": "Lyon",
    "population": 520774,
    "fetched_at": "2025-12-17 13:59:49.455593"
  },
  {
    "address": "Toulouse",
    "latitude": 43.604082,
    "longitude": 1.433805,
    "score": 0.9638490909090908,
    "city": "Toulouse",
    "postcode": "31000",
    "citycode": "31555",
    "commune": "Toulouse",
    "population": 511684,
    "fetched_at": "2025-12-17 13:59:50.688519"
  },
  {
    "address": "Nice",
    "latitude": 43.71273,
    "longitude": 7.25092,
    "score": 0.9621709090909089,
    "city": "Nice",
    "postcode": "06000",
    "citycode": "06088",
    "commune": "Nice",
    "population": 353701,
    "fetched_at": "2025-12-17 13:59:51.876825"
  },
  {
    "address": "Strasbourg",
    "latitude": 48.579831,
    "longitude": 7.761454,
    "score": 0.9612954545454545,
    "city": "Strasbourg",
    "postcode": "67000",
    "citycode": "67482",
    "commune": "Strasbourg",
    "population": 291709,
    "fetched_at": "2025-12-17 13:59:53.134190"
  },
  {
    "address": "Bordeaux",
    "latitude": 44.851897,
    "longitude": -0.587877,
    "score": 0.9608645454545454,
    "city": "Bordeaux",
    "postcode": "33000",
    "citycode": "33063",
    "commune": "Bordeaux",
    "population": 265328,
    "fetched_at": "2025-12-17 13:59:54.394670"
  },
  {
    "address": "Marseille",
    "latitude": 43.282,
    "longitude": 5.405,
    "score": 0.9662990909090908,
    "city": "Marseille",
    "postcode": "13001",
    "citycode": "13055",
    "commune": "Marseille",
    "population": 877215,
    "fetched_at": "2025-12-17 13:59:55.653449"
  },
  {
    "address": "Lille",
    "latitude": 50.630951,
    "longitude": 3.045391,
    "score": 0.9603836363636362,
    "city": "Lille",
    "postcode": "59000",
    "citycode": "59350",
    "commune": "Lille",
    "population": 238695,
    "fetched_at": "2025-12-17 13:59:56.920540"
  },
  {
    "address": "Nantes",
    "latitude": 47.239367,
    "longitude": -1.555335,
    "score": 0.9617872727272726,
    "city": "Nantes",
    "postcode": "44000",
    "citycode": "44109",
    "commune": "Nantes",
    "population": 325070,
    "fetched_at": "2025-12-17 13:59:58.220918"
  },
  {
    "address": "Montpellier",
    "latitude": 43.610476,
    "longitude": 3.87048,
    "score": 0.9615290909090909,
    "city": "Montpellier",
    "postcode": "34000",
    "citycode": "34172",
    "commune": "Montpellier",
    "population": 307101,
    "fetched_at": "2025-12-17 13:59:59.415521"
  },
  {
    "address": "Rennes",
    "latitude": 48.110899,
    "longitude": -1.68365,
    "score": 0.9601718181818182,
    "city": "Rennes",
    "postcode": "35000",
    "citycode": "35238",
    "commune": "Rennes",
    "population": 227830,
    "fetched_at": "2025-12-17 14:00:00.591322"
  },
  {
    "address": "Dijon",
    "latitude": 47.331848,
    "longitude": 5.033601,
    "score": 0.9585636363636362,
    "city": "Dijon",
    "postcode": "21000",
    "citycode": "21231",
    "commune": "Dijon",
    "population": 159941,
    "fetched_at": "2025-12-17 14:00:06.570411"
  },
  {
    "address": "Grenoble",
    "latitude": 45.182828,
    "longitude": 5.724369,
    "score": 0.9584618181818181,
    "city": "Grenoble",
    "postcode": "38000",
    "citycode": "38185",
    "commune": "Grenoble",
    "population": 156389,
    "fetched_at": "2025-12-17 14:00:07.756469"
  },
  {
    "address": "Angers",
    "latitude": 47.467471,
    "longitude": -0.561615,
    "score": 0.9584954545454546,
    "city": "Angers",
    "postcode": "49000",
    "citycode": "49007",
    "commune": "Angers",
    "population": 157555,
    "fetched_at": "2025-12-17 14:00:08.997396"
  },
  {
    "address": "Nîmes",
    "latitude": 43.814652,
    "longitude": 4.356289,
    "score": 0.9582854545454544,
    "city": "Nîmes",
    "postcode": "30000",
    "citycode": "30189",
    "commune": "Nîmes",
    "population": 150444,
    "fetched_at": "2025-12-17 14:00:10.162693"
  },
  {
    "address": "Tours",
    "latitude": 47.395476,
    "longitude": 0.695848,
    "score": 0.9579145454545454,
    "city": "Tours",
    "postcode": "37000",
    "citycode": "37261",
    "commune": "Tours",
    "population": 138668,
    "fetched_at": "2025-12-17 14:00:11.376764"
  },
  {
    "address": "Le Havre",
    "latitude": 49.507345,
    "longitude": 0.129995,
    "score": 0.9587454545454543,
    "city": "Le Havre",
    "postcode": "76600",
    "citycode": "76351",
    "commune": "Le Havre",
    "population": 166462,
    "fetched_at": "2025-12-17 14:00:12.521974"
  },
  {
    "address": "Saint-Étienne",
    "latitude": 45.430195,
    "longitude": 4.370045,
    "score": 0.9589090909090908,
    "city": "Saint-Étienne",
    "postcode": "42000",
    "citycode": "42218",
    "commune": "Saint-Étienne",
    "population": 172569,
    "fetched_at": "2025-12-17 14:00:13.715366"
  },
  {
    "address": "Clermont-Ferrand",
    "latitude": 45.786671,
    "longitude": 3.107055,
    "score": 0.9582027272727272,
    "city": "Clermont-Ferrand",
    "postcode": "63000",
    "citycode": "63113",
    "commune": "Clermont-Ferrand",
    "population": 147751,
    "fetched_at": "2025-12-17 14:00:15.032307"
  },
  {
    "address": "Reims",
    "latitude": 49.250948,
    "longitude": 4.055595,
    "score": 0.959061818181818,
    "city": "Reims",
    "postcode": "51100",
    "citycode": "51454",
    "commune": "Reims",
    "population": 178478,
    "fetched_at": "2025-12-17 14:00:16.545746"
  },
  {
    "address": "Amiens",
    "latitude": 49.903041,
    "longitude": 2.292605,
    "score": 0.9577854545454544,
    "city": "Amiens",
    "postcode": "80000",
    "citycode": "80021",
    "commune": "Amiens",
    "population": 134780,
    "fetched_at": "2025-12-17 14:00:17.764678"
  },
  {
    "address": "Limoges",
    "latitude": 45.856159,
    "longitude": 1.221254,
    "score": 0.9576127272727272,
    "city": "Limoges",
    "postcode": "87000",
    "citycode": "87085",
    "commune": "Limoges",
    "population": 129754,
    "fetched_at": "2025-12-17 14:00:18.984637"
  },
  {
    "address": "Perpignan",
    "latitude": 42.701507,
    "longitude": 2.902811,
    "score": 0.9572954545454545,
    "city": "Perpignan",
    "postcode": "66000",
    "citycode": "66136",
    "commune": "Perpignan",
    "population": 120996,
    "fetched_at": "2025-12-17 14:00:20.157038"
  },
  {
    "address": "Metz",
    "latitude": 49.108385,
    "longitude": 6.194891,
    "score": 0.9573209090909091,
    "city": "Metz",
    "postcode": "57000",
    "citycode": "57463",
    "commune": "Metz",
    "population": 121695,
    "fetched_at": "2025-12-17 14:00:21.412361"
  },
  {
    "address": "Orléans",
    "latitude": 47.873569,
    "longitude": 1.911358,
    "score": 0.9571172727272726,
    "city": "Orléans",
    "postcode": "45000",
    "citycode": "45234",
    "commune": "Orléans",
    "population": 116344,
    "fetched_at": "2025-12-17 14:00:22.606046"
  },
  {
    "address": "Besançon",
    "latitude": 47.251938,
    "longitude": 6.001699,
    "score": 0.9572599999999999,
    "city": "Besançon",
    "postcode": "25000",
    "citycode": "25056",
    "commune": "Besançon",
    "population": 120057,
    "fetched_at": "2025-12-17 14:00:23.807703"
  },
  {
    "address": "Rouen",
    "latitude": 49.440044,
    "longitude": 1.093912,
    "score": 0.9571163636363637,
    "city": "Rouen",
    "postcode": "76000",
    "citycode": "76540",
    "commune": "Rouen",
    "population": 116331,
    "fetched_at": "2025-12-17 14:00:27.269524"
  },
  {
    "address": "mulhouse 68400 Riedisheim",
    "latitude": 47.749296,
    "longitude": 7.369718,
    "score": 0.964350909090909,
    "city": "Riedisheim",
    "postcode": "68400",
    "citycode": "68271",
    "commune": "Riedisheim",
    "population": 12154,
    "fetched_at": "2025-12-17 14:00:28.452201"
  },
  {
    "address": "Caen",
    "latitude": 49.185307,
    "longitude": -0.371758,
    "score": 0.9567954545454546,
    "city": "Caen",
    "postcode": "14000",
    "citycode": "14118",
    "commune": "Caen",
    "population": 108398,
    "fetched_at": "2025-12-17 14:00:29.618334"
  },
  {
    "address": "Nancy",
    "latitude": 48.688135,
    "longitude": 6.171263,
    "score": 0.9566236363636363,
    "city": "Nancy",
    "postcode": "54000",
    "citycode": "54395",
    "commune": "Nancy",
    "population": 104387,
    "fetched_at": "2025-12-17 14:00:30.807573"
  },
  {
    "address": "Avignon 35270 Combourg",
    "latitude": 48.390692,
    "longitude": -1.759389,
    "score": 0.9567599999999998,
    "city": "Combourg",
    "postcode": "35270",
    "citycode": "35085",
    "commune": "Combourg",
    "population": 6324,
    "fetched_at": "2025-12-17 14:00:32.930600"
  },
  {
    "address": "Poitiers",
    "latitude": 46.586578,
    "longitude": 0.35668,
    "score": 0.9559236363636362,
    "city": "Poitiers",
    "postcode": "86000",
    "citycode": "86194",
    "commune": "Poitiers",
    "population": 89472,
    "fetched_at": "2025-12-17 14:00:34.161506"
  },
  {
    "address": "la Rochelle 35230 Orgères",
    "latitude": 47.984627,
    "longitude": -1.65389,
    "score": 0.9571699999999999,
    "city": "Orgères",
    "postcode": "35230",
    "citycode": "35208",
    "commune": "Orgères",
    "population": 5602,
    "fetched_at": "2025-12-17 14:00:35.613219"
  },
  {
    "address": "Bayonne",
    "latitude": 43.488544,
    "longitude": -1.466564,
    "score": 0.9535699999999999,
    "city": "Bayonne",
    "postcode": "64100",
    "citycode": "64102",
    "commune": "Bayonne",
    "population": 53312,
    "fetched_at": "2025-12-17 14:00:36.966131"
  }
]